<?xml version="1.0" encoding="UTF-8"?><kml xmlns="http://earth.google.com/kml/2.0"><Document>
<Placemark><name>Saint-Ouen-sur-Seine - Radar Poid lourd FR</name>
			<Point><coordinates>2.3497122,48.9011723,0</coordinates></Point>
			</Placemark>
<Placemark><name>Paris - Radar Poid lourd FR</name>
			<Point><coordinates>2.2915658,48.8277751,0</coordinates></Point>
			</Placemark>
<Placemark><name>Ailly - Radar Poid lourd FR</name>
			<Point><coordinates>1.2678581,49.1595319,0</coordinates></Point>
			</Placemark>
<Placemark><name>Hordain - Radar Poid lourd FR</name>
			<Point><coordinates>3.3320489,50.2663409,0</coordinates></Point>
			</Placemark>
<Placemark><name>Boucheporn - Radar Poid lourd FR</name>
			<Point><coordinates>6.6070735,49.1361171,0</coordinates></Point>
			</Placemark>
<Placemark><name>Valence-en-Poitou - Radar Poid lourd FR</name>
			<Point><coordinates>0.1756498,46.301521,0</coordinates></Point>
			</Placemark>
<Placemark><name>Valence-en-Poitou - Radar Poid lourd FR</name>
			<Point><coordinates>0.1758443,46.301169,0</coordinates></Point>
			</Placemark>
<Placemark><name>Pont-Sainte-Maxence - Radar Poid lourd FR</name>
			<Point><coordinates>2.5768304,49.3038894,0</coordinates></Point>
			</Placemark></Document></kml>