<?xml version="1.0" encoding="UTF-8"?><kml xmlns="http://earth.google.com/kml/2.0"><Document>
<Placemark><name>Campénéac - Radar Troncon Fin FR</name>
			<Point><coordinates>-2.32286,47.930523,0</coordinates></Point>
			</Placemark>
<Placemark><name>Saint-Jean-de-Védas - Radar Troncon Fin FR</name>
			<Point><coordinates>3.840394,43.566769,0</coordinates></Point>
			</Placemark>
<Placemark><name>TOULON - Radar Troncon Fin FR</name>
			<Point><coordinates>5.91401,43.12696,0</coordinates></Point>
			</Placemark>
<Placemark><name>Saint-Cloud - Radar Troncon Fin FR</name>
			<Point><coordinates>2.218211,48.839238,0</coordinates></Point>
			</Placemark>
<Placemark><name>Aspremont - Radar Troncon Fin FR</name>
			<Point><coordinates>5.729911,44.49783,0</coordinates></Point>
			</Placemark>
<Placemark><name>Linas - Radar Troncon Fin FR</name>
			<Point><coordinates>2.25599,48.62867,0</coordinates></Point>
			</Placemark>
<Placemark><name>Lançon-Provence - Radar Troncon Fin FR</name>
			<Point><coordinates>5.145149,43.582498,0</coordinates></Point>
			</Placemark>
<Placemark><name>Bailleulval - Radar Troncon Fin FR</name>
			<Point><coordinates>2.61781,50.22829,0</coordinates></Point>
			</Placemark>
<Placemark><name>Magny-Cours - Radar Troncon Fin FR</name>
			<Point><coordinates>3.155689,46.897835,0</coordinates></Point>
			</Placemark>
<Placemark><name>Quimperlé - Radar Troncon Fin FR</name>
			<Point><coordinates>-3.560074,47.862616,0</coordinates></Point>
			</Placemark>
<Placemark><name>Boulazac Isle Manoire - Radar Troncon Fin FR</name>
			<Point><coordinates>0.784647,45.141412,0</coordinates></Point>
			</Placemark>
<Placemark><name>Foix - Radar Troncon Fin FR</name>
			<Point><coordinates>1.613839,43.007091,0</coordinates></Point>
			</Placemark>
<Placemark><name>Wirwignes - Radar Troncon Fin FR</name>
			<Point><coordinates>1.755576,50.682449,0</coordinates></Point>
			</Placemark>
<Placemark><name>Warlincourt-lès-Pas - Radar Troncon Fin FR</name>
			<Point><coordinates>2.48895,50.18855,0</coordinates></Point>
			</Placemark>
<Placemark><name>Bourcefranc-le-Chapus - Radar Troncon Fin FR</name>
			<Point><coordinates>-1.166764,45.845916,0</coordinates></Point>
			</Placemark>
<Placemark><name>Sainte-Hélène - Radar Troncon Fin FR</name>
			<Point><coordinates>4.625903,46.738374,0</coordinates></Point>
			</Placemark>
<Placemark><name>Chevilly - Radar Troncon Fin FR</name>
			<Point><coordinates>1.877599,48.016904,0</coordinates></Point>
			</Placemark>
<Placemark><name>Isles-sur-Suippe - Radar Troncon Fin FR</name>
			<Point><coordinates>4.206685,49.356887,0</coordinates></Point>
			</Placemark>
<Placemark><name>Malesherbes - Radar Troncon Fin FR</name>
			<Point><coordinates>2.393281,48.283072,0</coordinates></Point>
			</Placemark>
<Placemark><name>Èze - Radar Troncon Fin FR</name>
			<Point><coordinates>7.38217,43.73215,0</coordinates></Point>
			</Placemark>
<Placemark><name>Dalou - Radar Troncon Fin FR</name>
			<Point><coordinates>1.630642,43.038347,0</coordinates></Point>
			</Placemark>
<Placemark><name>Pontcharra-sur-Turdine - Radar Troncon Fin FR</name>
			<Point><coordinates>4.490047,45.870747,0</coordinates></Point>
			</Placemark>
<Placemark><name>Boucieu-le-Roi - Radar Troncon Fin FR</name>
			<Point><coordinates>4.70042,45.0264,0</coordinates></Point>
			</Placemark>
<Placemark><name>Maury - Radar Troncon Fin FR</name>
			<Point><coordinates>2.582917,42.810599,0</coordinates></Point>
			</Placemark>
<Placemark><name>Manchecourt - Radar Troncon Fin FR</name>
			<Point><coordinates>2.34647,48.251513,0</coordinates></Point>
			</Placemark>
<Placemark><name>Saint-Sylvestre - Radar Troncon Fin FR</name>
			<Point><coordinates>1.33827,46.00233,0</coordinates></Point>
			</Placemark>
<Placemark><name>Maury - Radar Troncon Fin FR</name>
			<Point><coordinates>2.516978,42.814222,0</coordinates></Point>
			</Placemark>
<Placemark><name>Marseille - Radar Troncon Fin FR</name>
			<Point><coordinates>5.485109,43.291294,0</coordinates></Point>
			</Placemark>
<Placemark><name>Plombières-lès-Dijon - Radar Troncon Fin FR</name>
			<Point><coordinates>4.984968,47.336734,0</coordinates></Point>
			</Placemark>
<Placemark><name>Saint-Privat-des-Vieux - Radar Troncon Fin FR</name>
			<Point><coordinates>4.11722,44.15959,0</coordinates></Point>
			</Placemark>
<Placemark><name>Noailles - Radar Troncon Fin FR</name>
			<Point><coordinates>1.516927,45.104759,0</coordinates></Point>
			</Placemark>
<Placemark><name>Marcoussis - Radar Troncon Fin FR</name>
			<Point><coordinates>2.218296,48.634582,0</coordinates></Point>
			</Placemark>
<Placemark><name>Ajain - Radar Troncon Fin FR</name>
			<Point><coordinates>1.943566,46.188868,0</coordinates></Point>
			</Placemark>
<Placemark><name>Pau - Radar Troncon Fin FR</name>
			<Point><coordinates>-0.34779,43.328907,0</coordinates></Point>
			</Placemark>
<Placemark><name>Noizay - Radar Troncon Fin FR</name>
			<Point><coordinates>0.89767,47.40434,0</coordinates></Point>
			</Placemark>
<Placemark><name>Salindres - Radar Troncon Fin FR</name>
			<Point><coordinates>4.141587,44.171337,0</coordinates></Point>
			</Placemark>
<Placemark><name>Brive-la-Gaillarde - Radar Troncon Fin FR</name>
			<Point><coordinates>1.488924,45.140032,0</coordinates></Point>
			</Placemark>
<Placemark><name>Sainghin-en-Mélantois - Radar Troncon Fin FR</name>
			<Point><coordinates>3.166683,50.59952,0</coordinates></Point>
			</Placemark>
<Placemark><name>Schaffouse-sur-Zorn - Radar Troncon Fin FR</name>
			<Point><coordinates>7.560838,48.735803,0</coordinates></Point>
			</Placemark>
<Placemark><name>Sérézin-de-la-Tour - Radar Troncon Fin FR</name>
			<Point><coordinates>5.358043,45.554781,0</coordinates></Point>
			</Placemark>
<Placemark><name>Auxey-Duresses - Radar Troncon Fin FR</name>
			<Point><coordinates>4.705865,46.978473,0</coordinates></Point>
			</Placemark>
<Placemark><name>Puymoyen - Radar Troncon Fin FR</name>
			<Point><coordinates>0.182061,45.625209,0</coordinates></Point>
			</Placemark>
<Placemark><name>La Penne-sur-Huveaune - Radar Troncon Fin FR</name>
			<Point><coordinates>5.499529,43.288121,0</coordinates></Point>
			</Placemark>
<Placemark><name>Baisieux - Radar Troncon Fin FR</name>
			<Point><coordinates>3.23862,50.60196,0</coordinates></Point>
			</Placemark>
<Placemark><name>Romans - Radar Troncon Fin FR</name>
			<Point><coordinates>-0.245327,46.36678,0</coordinates></Point>
			</Placemark>
<Placemark><name>Tresques - Radar Troncon Fin FR</name>
			<Point><coordinates>4.61514,44.113866,0</coordinates></Point>
			</Placemark>
<Placemark><name>Tilly - Radar Troncon Fin FR</name>
			<Point><coordinates>1.5133,49.12826,0</coordinates></Point>
			</Placemark>
<Placemark><name>Saint-Langis-lès-Mortagne - Radar Troncon Fin FR</name>
			<Point><coordinates>0.527245,48.511387,0</coordinates></Point>
			</Placemark>
<Placemark><name>Évires - Radar Troncon Fin FR</name>
			<Point><coordinates>6.247575,46.040271,0</coordinates></Point>
			</Placemark>
<Placemark><name>Nailloux - Radar Troncon Fin FR</name>
			<Point><coordinates>1.615665,43.382873,0</coordinates></Point>
			</Placemark>
<Placemark><name>Cercottes - Radar Troncon Fin FR</name>
			<Point><coordinates>1.881113,47.995145,0</coordinates></Point>
			</Placemark>
<Placemark><name>Rivedoux-Plage - Radar Troncon Fin FR</name>
			<Point><coordinates>-1.25644,46.163753,0</coordinates></Point>
			</Placemark>
<Placemark><name>La Mézière - Radar Troncon Fin FR</name>
			<Point><coordinates>-1.73735,48.20971,0</coordinates></Point>
			</Placemark>
<Placemark><name>Saint-Martial-de-Mirambeau - Radar Troncon Fin FR</name>
			<Point><coordinates>-0.600923,45.380273,0</coordinates></Point>
			</Placemark>
<Placemark><name>Montoir-de-Bretagne - Radar Troncon Fin FR</name>
			<Point><coordinates>-2.178056,47.297217,0</coordinates></Point>
			</Placemark>
<Placemark><name>Vidauban - Radar Troncon Fin FR</name>
			<Point><coordinates>6.443381,43.41364,0</coordinates></Point>
			</Placemark>
<Placemark><name>Toulon - Radar Troncon Fin FR</name>
			<Point><coordinates>5.950828,43.120444,0</coordinates></Point>
			</Placemark>
<Placemark><name>Beure - Radar Troncon Fin FR</name>
			<Point><coordinates>6.010246,47.215398,0</coordinates></Point>
			</Placemark>
<Placemark><name>Ennetières-en-Weppes - Radar Troncon Fin FR</name>
			<Point><coordinates>2.942325,50.636774,0</coordinates></Point>
			</Placemark>
<Placemark><name>Uzerche - Radar Troncon Fin FR</name>
			<Point><coordinates>1.54359,45.40678,0</coordinates></Point>
			</Placemark>
<Placemark><name>Baillargues - Radar Troncon Fin FR</name>
			<Point><coordinates>4.007202,43.66684,0</coordinates></Point>
			</Placemark>
<Placemark><name>Saint-Brévin-Les-Pins - Radar Troncon Fin FR</name>
			<Point><coordinates>-2.161992,47.268604,0</coordinates></Point>
			</Placemark>
<Placemark><name>Puiseux-Pontoise - Radar Troncon Fin FR</name>
			<Point><coordinates>2.001189,49.058732,0</coordinates></Point>
			</Placemark>
<Placemark><name>Boulogne-Billancourt - Radar Troncon Fin FR</name>
			<Point><coordinates>2.233313,48.84844,0</coordinates></Point>
			</Placemark>
<Placemark><name>Le Cannet-des-Maures - Radar Troncon Fin FR</name>
			<Point><coordinates>6.37429,43.4017,0</coordinates></Point>
			</Placemark>
<Placemark><name>Fuans - Radar Troncon Fin FR</name>
			<Point><coordinates>6.587713,47.124611,0</coordinates></Point>
			</Placemark></Document></kml>